<authors>
  <year>2003</year>
  <author>
    <name>Joaquin Abellan</name>
    <email>jabemu@teleline.es</email>
    <location>
      <country>
        <code>ES</code>
        <name>Spain</name>
      </country>
      <city>
        <name>Granada</name>
        <latitude>37.18817</latitude>
        <longitude>-3.60667</longitude>
      </city>
      <university>
        <name>NA</name>
        <department>NA</department>
      </university>
    </location>
  </author>
  <author>
    <name>Serafin Moral</name>
    <email>smc@decsai.ugr.es</email>
    <location>
      <country>
        <code>ES</code>
        <name>Spain</name>
      </country>
      <city>
        <name>Granada</name>
        <latitude>37.18817</latitude>
        <longitude>-3.60667</longitude>
      </city>
      <university>
        <name>NA</name>
        <department>NA</department>
      </university>
    </location>
  </author>
  <author>
    <name>Thomas Augustin</name>
    <email>thomas@stat.uni-muenchen.de</email>
    <location>
      <country>
        <code>DE</code>
        <name>Germany</name>
      </country>
      <city>
        <name>Munich</name>
        <latitude>48.13743</latitude>
        <longitude>11.57549</longitude>
      </city>
      <university>
        <name>NA</name>
        <department>NA</department>
      </university>
    </location>
  </author>
  <author>
    <name>Jean-Marc Bernard</name>
    <email>jmbernard@psycho.univ-paris5.fr</email>
    <location>
      <country>
        <code>FR</code>
        <name>France</name>
      </country>
      <city>
        <name>Paris</name>
        <latitude>48.85341</latitude>
        <longitude>2.34880</longitude>
      </city>
      <university>
        <name>NA</name>
        <department>NA</department>
      </university>
    </location>
  </author>
  <author>
    <name>Veronica Biazzo</name>
    <email>vbiazzo@dmi.unict.it</email>
    <location>
      <country>
        <code>IT</code>
        <name>Italy</name>
      </country>
      <city>
        <name>Catania</name>
        <latitude>37.50213</latitude>
        <longitude>15.08719</longitude>
      </city>
      <university>
        <name>NA</name>
        <department>NA</department>
      </university>
    </location>
  </author>
  <author>
    <name>Angelo Gilio</name>
    <email>gilio@dmmm.uniroma1.it</email>
    <location>
      <country>
        <code>IT</code>
        <name>Italy</name>
      </country>
      <city>
        <name>Rome</name>
        <latitude>41.89474</latitude>
        <longitude>12.48390</longitude>
      </city>
      <university>
        <name>NA</name>
        <department>NA</department>
      </university>
    </location>
  </author>
  <author>
    <name>Giuseppe Sanfilippo</name>
    <email>gsanfilippo@dmi.unict.it</email>
    <location>
      <country>
        <code>IT</code>
        <name>Italy</name>
      </country>
      <city>
        <name>Catania</name>
        <latitude>37.50213</latitude>
        <longitude>15.08719</longitude>
      </city>
      <university>
        <name>NA</name>
        <department>NA</department>
      </university>
    </location>
  </author>
  <author>
    <name>Andrew Bronevich</name>
    <email>brone@mail.ru</email>
    <location>
      <country>
        <code>RU</code>
        <name>Russian Federation</name>
      </country>
      <city>
        <name>Taganrog</name>
        <latitude>47.23617</latitude>
        <longitude>38.89688</longitude>
      </city>
      <university>
        <name>NA</name>
        <department>NA</department>
      </university>
    </location>
  </author>
  <author>
    <name>David Budescu</name>
    <email>dbudescu@s.psych.uiuc.edu</email>
    <location>
      <country>
        <code>US</code>
        <name>United States</name>
      </country>
      <city>
        <name>Urbana-Champaign</name>
        <latitude>40.11059</latitude>
        <longitude>-88.20727</longitude>
      </city>
      <university>
        <name>NA</name>
        <department>NA</department>
      </university>
    </location>
  </author>
  <author>
    <name>Tzur Karelitz</name>
    <email>karelitz@s.psych.uiuc.edu</email>
    <location>
      <country>
        <code>US</code>
        <name>United States</name>
      </country>
      <city>
        <name>Urbana-Champaign</name>
        <latitude>40.11059</latitude>
        <longitude>-88.20727</longitude>
      </city>
      <university>
        <name>NA</name>
        <department>NA</department>
      </university>
    </location>
  </author>
  <author>
    <name>Andrea Capotorti</name>
    <email>capot@dipmat.unipg.it</email>
    <location>
      <country>
        <code>IT</code>
        <name>Italy</name>
      </country>
      <city>
        <name>Perugia</name>
        <latitude>43.11220</latitude>
        <longitude>12.38878</longitude>
      </city>
      <university>
        <name>NA</name>
        <department>NA</department>
      </university>
    </location>
  </author>
  <author>
    <name>Marco Cattaneo</name>
    <email>cattaneo@stat.math.ethz.ch</email>
    <location>
      <country>
        <code>CH</code>
        <name>Switzerland</name>
      </country>
      <city>
        <name>Zurich</name>
        <latitude>47.36667</latitude>
        <longitude>8.55000</longitude>
      </city>
      <university>
        <name>NA</name>
        <department>NA</department>
      </university>
    </location>
  </author>
  <author>
    <name>Frank Coolen</name>
    <email>Frank.Coolen@durham.ac.uk</email>
    <location>
      <country>
        <code>GB</code>
        <name>United Kingdom</name>
      </country>
      <city>
        <name>Durham (UK)</name>
        <latitude>54.77639</latitude>
        <longitude>-1.57587</longitude>
      </city>
      <university>
        <name>NA</name>
        <department>NA</department>
      </university>
    </location>
  </author>
  <author>
    <name>Ke-Jian Yan</name>
    <email>K.J.Yan@durham.ac.uk</email>
    <location>
      <country>
        <code>GB</code>
        <name>United Kingdom</name>
      </country>
      <city>
        <name>Durham (UK)</name>
        <latitude>54.77639</latitude>
        <longitude>-1.57587</longitude>
      </city>
      <university>
        <name>NA</name>
        <department>NA</department>
      </university>
    </location>
  </author>
  <author>
    <name>Fabio Cozman</name>
    <email>fgcozman@usp.br</email>
    <location>
      <country>
        <code>BR</code>
        <name>Brazil</name>
      </country>
      <city>
        <name>Sao Paulo</name>
        <latitude>-23.54750</latitude>
        <longitude>-46.63611</longitude>
      </city>
      <university>
        <name>NA</name>
        <department>NA</department>
      </university>
    </location>
  </author>
  <author>
    <name>Fabio Cuzzolin</name>
    <email>cuzzolin@dei.unipd.it</email>
    <location>
      <country>
        <code>IT</code>
        <name>Italy</name>
      </country>
      <city>
        <name>Padova</name>
        <latitude>45.41519</latitude>
        <longitude>11.88181</longitude>
      </city>
      <university>
        <name>NA</name>
        <department>NA</department>
      </university>
    </location>
  </author>
  <author>
    <name>James Dickey</name>
    <email>dickey@stat.umn.edu</email>
    <location>
      <country>
        <code>US</code>
        <name>United States</name>
      </country>
      <city>
        <name>Minneapolis</name>
        <latitude>44.97997</latitude>
        <longitude>-93.26384</longitude>
      </city>
      <university>
        <name>NA</name>
        <department>NA</department>
      </university>
    </location>
  </author>
  <author>
    <name>Serena Doria</name>
    <email>s.doria@dst.unich.it</email>
    <location>
      <country>
        <code>IT</code>
        <name>Italy</name>
      </country>
      <city>
        <name>Chieti</name>
        <latitude>42.36094</latitude>
        <longitude>14.13801</longitude>
      </city>
      <university>
        <name>NA</name>
        <department>NA</department>
      </university>
    </location>
  </author>
  <author>
    <name>Pablo Fierens</name>
    <email>pifierens@ece.cornell.edu</email>
    <location>
      <country>
        <code>US</code>
        <name>United States</name>
      </country>
      <city>
        <name>Ithaca</name>
        <latitude>42.40279</latitude>
        <longitude>-76.48400</longitude>
      </city>
      <university>
        <name>NA</name>
        <department>NA</department>
      </university>
    </location>
  </author>
  <author>
    <name>Terrence Fine</name>
    <email>tlfine@ece.cornell.edu</email>
    <location>
      <country>
        <code>US</code>
        <name>United States</name>
      </country>
      <city>
        <name>Ithaca</name>
        <latitude>42.40279</latitude>
        <longitude>-76.48400</longitude>
      </city>
      <university>
        <name>NA</name>
        <department>NA</department>
      </university>
    </location>
  </author>
  <author>
    <name>Peter Gillett</name>
    <email>gillett@business.rutgers.edu</email>
    <location>
      <country>
        <code>US</code>
        <name>United States</name>
      </country>
      <city>
        <name>Piscataway</name>
        <latitude>40.55293</latitude>
        <longitude>-74.45775</longitude>
      </city>
      <university>
        <name>NA</name>
        <department>NA</department>
      </university>
    </location>
  </author>
  <author>
    <name>Glenn Shafer</name>
    <email>gshafer@andromeda.rutgers.edu</email>
    <location>
      <country>
        <code>US</code>
        <name>United States</name>
      </country>
      <city>
        <name>Newark</name>
        <latitude>40.73566</latitude>
        <longitude>-74.17237</longitude>
      </city>
      <university>
        <name>NA</name>
        <department>NA</department>
      </university>
    </location>
  </author>
  <author>
    <name>Richard Scherl</name>
    <email>rscherl@monmouth.edu</email>
    <location>
      <country>
        <code>US</code>
        <name>United States</name>
      </country>
      <city>
        <name>West Long Branch</name>
        <latitude>40.28351</latitude>
        <longitude>-74.01828</longitude>
      </city>
      <university>
        <name>NA</name>
        <department>NA</department>
      </university>
    </location>
  </author>
  <author>
    <name>Minh Ha-Duong</name>
    <email>minh.ha.duong@cmu.edu</email>
    <location>
      <country>
        <code>US</code>
        <name>United States</name>
      </country>
      <city>
        <name>Pittsburgh</name>
        <latitude>40.47441</latitude>
        <longitude>-79.95097</longitude>
      </city>
      <university>
        <name>NA</name>
        <department>NA</department>
      </university>
    </location>
  </author>
  <author>
    <name>Elizabeth Casman</name>
    <email>casman@andrew.cmu.edu</email>
    <location>
      <country>
        <code>US</code>
        <name>United States</name>
      </country>
      <city>
        <name>Pittsburgh</name>
        <latitude>40.47441</latitude>
        <longitude>-79.95097</longitude>
      </city>
      <university>
        <name>NA</name>
        <department>NA</department>
      </university>
    </location>
  </author>
  <author>
    <name>Granger Morgan</name>
    <email>granger.morgan@andrew.cmu.edu</email>
    <location>
      <country>
        <code>US</code>
        <name>United States</name>
      </country>
      <city>
        <name>Pittsburgh</name>
        <latitude>40.47441</latitude>
        <longitude>-79.95097</longitude>
      </city>
      <university>
        <name>NA</name>
        <department>NA</department>
      </university>
    </location>
  </author>
  <author>
    <name>Javier Hernandez</name>
    <email>javierhs@materiales.unex.es</email>
    <location>
      <country>
        <code>ES</code>
        <name>Spain</name>
      </country>
      <city>
        <name>Badajoz</name>
        <latitude>38.87789</latitude>
        <longitude>-6.97061</longitude>
      </city>
      <university>
        <name>NA</name>
        <department>NA</department>
      </university>
    </location>
  </author>
  <author>
    <name>Jacinto Martin</name>
    <email>jrmartin@unex.es</email>
    <location>
      <country>
        <code>ES</code>
        <name>Spain</name>
      </country>
      <city>
        <name>Caceres</name>
        <latitude>39.47649</latitude>
        <longitude>-6.37224</longitude>
      </city>
      <university>
        <name>NA</name>
        <department>NA</department>
      </university>
    </location>
  </author>
  <author>
    <name>Jose Arias</name>
    <email>jparias@unex.es</email>
    <location>
      <country>
        <code>ES</code>
        <name>Spain</name>
      </country>
      <city>
        <name>Caceres</name>
        <latitude>39.47649</latitude>
        <longitude>-6.37224</longitude>
      </city>
      <university>
        <name>NA</name>
        <department>NA</department>
      </university>
    </location>
  </author>
  <author>
    <name>Alfonso Suarez</name>
    <email>alfonso.suarez@uca.es</email>
    <location>
      <country>
        <code>ES</code>
        <name>Spain</name>
      </country>
      <city>
        <name>Cadiz</name>
        <latitude>36.53361</latitude>
        <longitude>-6.29944</longitude>
      </city>
      <university>
        <name>NA</name>
        <department>NA</department>
      </university>
    </location>
  </author>
  <author>
    <name>Marcus Hutter</name>
    <email>marcus@idsia.ch</email>
    <location>
      <country>
        <code>CH</code>
        <name>Switzerland</name>
      </country>
      <city>
        <name>Manno</name>
        <latitude>46.03072</latitude>
        <longitude>8.91937</longitude>
      </city>
      <university>
        <name>NA</name>
        <department>NA</department>
      </university>
    </location>
  </author>
  <author>
    <name>Jean-Yves Jaffray</name>
    <email>Jean-Yves.Jaffray@lip6.fr</email>
    <location>
      <country>
        <code>FR</code>
        <name>France</name>
      </country>
      <city>
        <name>Paris</name>
        <latitude>48.85341</latitude>
        <longitude>2.34880</longitude>
      </city>
      <university>
        <name>NA</name>
        <department>NA</department>
      </university>
    </location>
  </author>
  <author>
    <name>Meglena Jeleva</name>
    <email>jeleva@univ-paris1.fr</email>
    <location>
      <country>
        <code>FR</code>
        <name>France</name>
      </country>
      <city>
        <name>Paris</name>
        <latitude>48.85341</latitude>
        <longitude>2.34880</longitude>
      </city>
      <university>
        <name>NA</name>
        <department>NA</department>
      </university>
    </location>
  </author>
  <author>
    <name>Radim Jirousek</name>
    <email>radim@utia.cas.cz</email>
    <location>
      <country>
        <code>CZ</code>
        <name>Czech Republic</name>
      </country>
      <city>
        <name>Prague</name>
        <latitude>50.08804</latitude>
        <longitude>14.42076</longitude>
      </city>
      <university>
        <name>NA</name>
        <department>NA</department>
      </university>
    </location>
  </author>
  <author>
    <name>George Klir</name>
    <email>gklir@binghamton.edu</email>
    <location>
      <country>
        <code>US</code>
        <name>United States</name>
      </country>
      <city>
        <name>Binghamton</name>
        <latitude>42.09869</latitude>
        <longitude>-75.91797</longitude>
      </city>
      <university>
        <name>NA</name>
        <department>NA</department>
      </university>
    </location>
  </author>
  <author>
    <name>Igor Kozine</name>
    <email>igor.kozine@risoe.dk</email>
    <location>
      <country>
        <code>DK</code>
        <name>Denmark</name>
      </country>
      <city>
        <name>Roskilde</name>
        <latitude>55.64152</latitude>
        <longitude>12.08035</longitude>
      </city>
      <university>
        <name>NA</name>
        <department>NA</department>
      </university>
    </location>
  </author>
  <author>
    <name>Victor Krymsky</name>
    <email>kvg@mail.rb.ru</email>
    <location>
      <country>
        <code>RU</code>
        <name>Russian Federation</name>
      </country>
      <city>
        <name>Ufa</name>
        <latitude>54.78517</latitude>
        <longitude>56.04562</longitude>
      </city>
      <university>
        <name>NA</name>
        <department>NA</department>
      </university>
    </location>
  </author>
  <author>
    <name>Elmar Kriegler</name>
    <email>kriegler@pik-potsdam.de</email>
    <location>
      <country>
        <code>DE</code>
        <name>Germany</name>
      </country>
      <city>
        <name>Potsdam</name>
        <latitude>52.39886</latitude>
        <longitude>13.06566</longitude>
      </city>
      <university>
        <name>NA</name>
        <department>NA</department>
      </university>
    </location>
  </author>
  <author>
    <name>Hermann Held</name>
    <email>held@pik-potsdam.de</email>
    <location>
      <country>
        <code>DE</code>
        <name>Germany</name>
      </country>
      <city>
        <name>Potsdam</name>
        <latitude>52.39886</latitude>
        <longitude>13.06566</longitude>
      </city>
      <university>
        <name>NA</name>
        <department>NA</department>
      </university>
    </location>
  </author>
  <author>
    <name>Aron Larsson</name>
    <email>aron.larsson@mhs.studit.com</email>
    <location>
      <country>
        <code>SE</code>
        <name>Sweden</name>
      </country>
      <city>
        <name>Sundsvall</name>
        <latitude>62.39129</latitude>
        <longitude>17.30630</longitude>
      </city>
      <university>
        <name>NA</name>
        <department>NA</department>
      </university>
    </location>
  </author>
  <author>
    <name>Mats Danielson</name>
    <email>mad@dsv.su.se</email>
    <location>
      <country>
        <code>SE</code>
        <name>Sweden</name>
      </country>
      <city>
        <name>Stockholm</name>
        <latitude>59.33258</latitude>
        <longitude>18.06490</longitude>
      </city>
      <university>
        <name>NA</name>
        <department>NA</department>
      </university>
    </location>
  </author>
  <author>
    <name>Love Ekenberg</name>
    <email>lovek@dsv.su.se</email>
    <location>
      <country>
        <code>SE</code>
        <name>Sweden</name>
      </country>
      <city>
        <name>Stockholm</name>
        <latitude>59.33258</latitude>
        <longitude>18.06490</longitude>
      </city>
      <university>
        <name>NA</name>
        <department>NA</department>
      </university>
    </location>
  </author>
  <author>
    <name>Jim Johansson</name>
    <email>jim.johansson@mh.se</email>
    <location>
      <country>
        <code>SE</code>
        <name>Sweden</name>
      </country>
      <city>
        <name>Sundsvall</name>
        <latitude>62.39129</latitude>
        <longitude>17.30630</longitude>
      </city>
      <university>
        <name>NA</name>
        <department>NA</department>
      </university>
    </location>
  </author>
  <author>
    <name>Radu Lazar</name>
    <email>lazar@stat.umn.edu</email>
    <location>
      <country>
        <code>US</code>
        <name>United States</name>
      </country>
      <city>
        <name>Minneapolis</name>
        <latitude>44.97997</latitude>
        <longitude>-93.26384</longitude>
      </city>
      <university>
        <name>NA</name>
        <department>NA</department>
      </university>
    </location>
  </author>
  <author>
    <name>Glen Meeden</name>
    <email>glen@stat.umn.edu</email>
    <location>
      <country>
        <code>US</code>
        <name>United States</name>
      </country>
      <city>
        <name>Minneapolis</name>
        <latitude>44.97997</latitude>
        <longitude>-93.26384</longitude>
      </city>
      <university>
        <name>NA</name>
        <department>NA</department>
      </university>
    </location>
  </author>
  <author>
    <name>Sebastian Maass</name>
    <email>Sebastian.Maass@web.de</email>
    <location>
      <country>
        <code>DE</code>
        <name>Germany</name>
      </country>
      <city>
        <name>Bremen</name>
        <latitude>53.08891</latitude>
        <longitude>8.79063</longitude>
      </city>
      <university>
        <name>NA</name>
        <department>NA</department>
      </university>
    </location>
  </author>
  <author>
    <name>Fabio Maccheroni</name>
    <email>fabio.maccheroni@uni-bocconi.it</email>
    <location>
      <country>
        <code>IT</code>
        <name>Italy</name>
      </country>
      <city>
        <name>Milan</name>
        <latitude>45.46427</latitude>
        <longitude>9.18951</longitude>
      </city>
      <university>
        <name>NA</name>
        <department>NA</department>
      </university>
    </location>
  </author>
  <author>
    <name>Massimo Marinacci</name>
    <email>massimo@econ.unito.it</email>
    <location>
      <country>
        <code>IT</code>
        <name>Italy</name>
      </country>
      <city>
        <name>Torino</name>
        <latitude>45.05000</latitude>
        <longitude>7.66667</longitude>
      </city>
      <university>
        <name>NA</name>
        <department>NA</department>
      </university>
    </location>
  </author>
  <author>
    <name>Erio Castagnoli</name>
    <email>erio.castagnoli@uni-bocconi.it</email>
    <location>
      <country>
        <code>IT</code>
        <name>Italy</name>
      </country>
      <city>
        <name>Milan</name>
        <latitude>45.46427</latitude>
        <longitude>9.18951</longitude>
      </city>
      <university>
        <name>NA</name>
        <department>NA</department>
      </university>
    </location>
  </author>
  <author>
    <name>Enrique Miranda</name>
    <email>emiranda@correo.uniovi.es</email>
    <location>
      <country>
        <code>ES</code>
        <name>Spain</name>
      </country>
      <city>
        <name>Oviedo</name>
        <latitude>43.36029</latitude>
        <longitude>-5.84476</longitude>
      </city>
      <university>
        <name>NA</name>
        <department>NA</department>
      </university>
    </location>
  </author>
  <author>
    <name>Ines Couso</name>
    <email>couso@pinon.ccu.uniovi.es</email>
    <location>
      <country>
        <code>ES</code>
        <name>Spain</name>
      </country>
      <city>
        <name>Oviedo</name>
        <latitude>43.36029</latitude>
        <longitude>-5.84476</longitude>
      </city>
      <university>
        <name>NA</name>
        <department>NA</department>
      </university>
    </location>
  </author>
  <author>
    <name>Pedro Gil</name>
    <email>pedro@pinon.ccu.uniovi.es</email>
    <location>
      <country>
        <code>ES</code>
        <name>Spain</name>
      </country>
      <city>
        <name>Oviedo</name>
        <latitude>43.36029</latitude>
        <longitude>-5.84476</longitude>
      </city>
      <university>
        <name>NA</name>
        <department>NA</department>
      </university>
    </location>
  </author>
  <author>
    <name>Darryl Morrell</name>
    <email>morrell@asu.edu</email>
    <location>
      <country>
        <code>US</code>
        <name>United States</name>
      </country>
      <city>
        <name>Tempe</name>
        <latitude>33.40140</latitude>
        <longitude>-111.93130</longitude>
      </city>
      <university>
        <name>NA</name>
        <department>NA</department>
      </university>
    </location>
  </author>
  <author>
    <name>Wynn Stirling</name>
    <email>wynn@ee.byu.edu</email>
    <location>
      <country>
        <code>US</code>
        <name>United States</name>
      </country>
      <city>
        <name>Provo</name>
        <latitude>40.23384</latitude>
        <longitude>-111.65853</longitude>
      </city>
      <university>
        <name>NA</name>
        <department>NA</department>
      </university>
    </location>
  </author>
  <author>
    <name>Robert Nau</name>
    <email>robert.nau@duke.edu</email>
    <location>
      <country>
        <code>US</code>
        <name>United States</name>
      </country>
      <city>
        <name>Durham (US)</name>
        <latitude>35.93698</latitude>
        <longitude>-78.90477</longitude>
      </city>
      <university>
        <name>NA</name>
        <department>NA</department>
      </university>
    </location>
  </author>
  <author>
    <name>Renato Pelessoni</name>
    <email>renato.pelessoni@econ.units.it</email>
    <location>
      <country>
        <code>IT</code>
        <name>Italy</name>
      </country>
      <city>
        <name>Trieste</name>
        <latitude>45.64861</latitude>
        <longitude>13.78000</longitude>
      </city>
      <university>
        <name>NA</name>
        <department>NA</department>
      </university>
    </location>
  </author>
  <author>
    <name>Paolo Vicig</name>
    <email>paolo.vicig@econ.units.it</email>
    <location>
      <country>
        <code>IT</code>
        <name>Italy</name>
      </country>
      <city>
        <name>Trieste</name>
        <latitude>45.64861</latitude>
        <longitude>13.78000</longitude>
      </city>
      <university>
        <name>NA</name>
        <department>NA</department>
      </university>
    </location>
  </author>
  <author>
    <name>Gerd Peschl</name>
    <email>peschl@tugraz.at</email>
    <location>
      <country>
        <code>AT</code>
        <name>Austria</name>
      </country>
      <city>
        <name>Graz</name>
        <latitude>47.06667</latitude>
        <longitude>15.45000</longitude>
      </city>
      <university>
        <name>NA</name>
        <department>NA</department>
      </university>
    </location>
  </author>
  <author>
    <name>Helmut Schweiger</name>
    <email>helmut.schweiger@tugraz.at</email>
    <location>
      <country>
        <code>AT</code>
        <name>Austria</name>
      </country>
      <city>
        <name>Graz</name>
        <latitude>47.06667</latitude>
        <longitude>15.45000</longitude>
      </city>
      <university>
        <name>NA</name>
        <department>NA</department>
      </university>
    </location>
  </author>
  <author>
    <name>Erik Quaeghebeur</name>
    <email>Erik.Quaeghebeur@rug.ac.be</email>
    <location>
      <country>
        <code>BE</code>
        <name>Belgium</name>
      </country>
      <city>
        <name>Ghent</name>
        <latitude>51.05000</latitude>
        <longitude>3.71667</longitude>
      </city>
      <university>
        <name>NA</name>
        <department>NA</department>
      </university>
    </location>
  </author>
  <author>
    <name>Gert de Cooman</name>
    <email>gert.decooman@rug.ac.be</email>
    <location>
      <country>
        <code>BE</code>
        <name>Belgium</name>
      </country>
      <city>
        <name>Ghent</name>
        <latitude>51.05000</latitude>
        <longitude>3.71667</longitude>
      </city>
      <university>
        <name>NA</name>
        <department>NA</department>
      </university>
    </location>
  </author>
  <author>
    <name>Huguette Reynaerts</name>
    <email>huguette.reynaerts@rug.ac.be</email>
    <location>
      <country>
        <code>BE</code>
        <name>Belgium</name>
      </country>
      <city>
        <name>Ghent</name>
        <latitude>51.05000</latitude>
        <longitude>3.71667</longitude>
      </city>
      <university>
        <name>NA</name>
        <department>NA</department>
      </university>
    </location>
  </author>
  <author>
    <name>Michele Vanmaele</name>
    <email>michele.vanmaele@rug.ac.be</email>
    <location>
      <country>
        <code>BE</code>
        <name>Belgium</name>
      </country>
      <city>
        <name>Ghent</name>
        <latitude>51.05000</latitude>
        <longitude>3.71667</longitude>
      </city>
      <university>
        <name>NA</name>
        <department>NA</department>
      </university>
    </location>
  </author>
  <author>
    <name>Jose Rocha</name>
    <email>jrocha@uepg.br</email>
    <location>
      <country>
        <code>BR</code>
        <name>Brazil</name>
      </country>
      <city>
        <name>Ponta Grossa</name>
        <latitude>-25.09500</latitude>
        <longitude>-50.16194</longitude>
      </city>
      <university>
        <name>NA</name>
        <department>NA</department>
      </university>
    </location>
  </author>
  <author>
    <name>Mark Schervish</name>
    <email>mark@stat.cmu.edu</email>
    <location>
      <country>
        <code>US</code>
        <name>United States</name>
      </country>
      <city>
        <name>Pittsburgh</name>
        <latitude>40.47441</latitude>
        <longitude>-79.95097</longitude>
      </city>
      <university>
        <name>NA</name>
        <department>NA</department>
      </university>
    </location>
  </author>
  <author>
    <name>Teddy Seidenfeld</name>
    <email>teddy@stat.cmu.edu</email>
    <location>
      <country>
        <code>US</code>
        <name>United States</name>
      </country>
      <city>
        <name>Pittsburgh</name>
        <latitude>40.47441</latitude>
        <longitude>-79.95097</longitude>
      </city>
      <university>
        <name>NA</name>
        <department>NA</department>
      </university>
    </location>
  </author>
  <author>
    <name>Joseph Kadane</name>
    <email>kadane@stat.cmu.edu</email>
    <location>
      <country>
        <code>US</code>
        <name>United States</name>
      </country>
      <city>
        <name>Pittsburgh</name>
        <latitude>40.47441</latitude>
        <longitude>-79.95097</longitude>
      </city>
      <university>
        <name>NA</name>
        <department>NA</department>
      </university>
    </location>
  </author>
  <author>
    <name>Isaac Levi</name>
    <email>levi@columbia.edu</email>
    <location>
      <country>
        <code>US</code>
        <name>United States</name>
      </country>
      <city>
        <name>New York</name>
        <latitude>40.71427</latitude>
        <longitude>-74.00597</longitude>
      </city>
      <university>
        <name>NA</name>
        <department>NA</department>
      </university>
    </location>
  </author>
  <author>
    <name>Damjan Skulj</name>
    <email>damjan.skulj@uni-lj.si</email>
    <location>
      <country>
        <code>SI</code>
        <name>Slovenia</name>
      </country>
      <city>
        <name>Ljubljana</name>
        <latitude>46.05108</latitude>
        <longitude>14.50513</longitude>
      </city>
      <university>
        <name>NA</name>
        <department>NA</department>
      </university>
    </location>
  </author>
  <author>
    <name>Matthias Troffaes</name>
    <email>matthias.troffaes@rug.ac.be</email>
    <location>
      <country>
        <code>BE</code>
        <name>Belgium</name>
      </country>
      <city>
        <name>Ghent</name>
        <latitude>51.05000</latitude>
        <longitude>3.71667</longitude>
      </city>
      <university>
        <name>NA</name>
        <department>NA</department>
      </university>
    </location>
  </author>
  <author>
    <name>Lev Utkin</name>
    <email>lvu@utkin.usr.etu.spb.ru</email>
    <location>
      <country>
        <code>RU</code>
        <name>Russian Federation</name>
      </country>
      <city>
        <name>Saint Petersburg</name>
        <latitude>59.89444</latitude>
        <longitude>30.26417</longitude>
      </city>
      <university>
        <name>NA</name>
        <department>NA</department>
      </university>
    </location>
  </author>
  <author>
    <name>Barbara Vantaggi</name>
    <email>vantaggi@dmmm.uniroma1.it</email>
    <location>
      <country>
        <code>IT</code>
        <name>Italy</name>
      </country>
      <city>
        <name>Rome</name>
        <latitude>41.89474</latitude>
        <longitude>12.48390</longitude>
      </city>
      <university>
        <name>NA</name>
        <department>NA</department>
      </university>
    </location>
  </author>
  <author>
    <name>Jirina Vejnarova</name>
    <email>vejnar@vse.cz</email>
    <location>
      <country>
        <code>CZ</code>
        <name>Czech Republic</name>
      </country>
      <city>
        <name>Prague</name>
        <latitude>50.08804</latitude>
        <longitude>14.42076</longitude>
      </city>
      <university>
        <name>NA</name>
        <department>NA</department>
      </university>
    </location>
  </author>
  <author>
    <name>Anton Wallner</name>
    <email>toni@stat.uni-muenchen.de</email>
    <location>
      <country>
        <code>DE</code>
        <name>Germany</name>
      </country>
      <city>
        <name>Munich</name>
        <latitude>48.13743</latitude>
        <longitude>11.57549</longitude>
      </city>
      <university>
        <name>NA</name>
        <department>NA</department>
      </university>
    </location>
  </author>
  <author>
    <name>Kurt Weichselberger</name>
    <email>weichsel@stat.uni-muenchen.de</email>
    <location>
      <country>
        <code>DE</code>
        <name>Germany</name>
      </country>
      <city>
        <name>Munich</name>
        <latitude>48.13743</latitude>
        <longitude>11.57549</longitude>
      </city>
      <university>
        <name>NA</name>
        <department>NA</department>
      </university>
    </location>
  </author>
</authors>