<authors>
  <year>2015</year>
  <author>
    <name>Alessandro Antonucci</name>
    <email>alessandro@idsia.ch</email>
    <location>
      <country>
        <code>CH</code>
        <name>Switzerland</name>
      </country>
      <city>
        <name>Manno</name>
        <latitude>46.03072</latitude>
        <longitude>8.91937</longitude>
      </city>
      <university>
        <name>NA</name>
        <department>NA</department>
      </university>
    </location>
  </author>
  <author>
    <name>Giorgio Corani</name>
    <email>giorgio@idsia.ch</email>
    <location>
      <country>
        <code>CH</code>
        <name>Switzerland</name>
      </country>
      <city>
        <name>Manno</name>
        <latitude>46.03072</latitude>
        <longitude>8.91937</longitude>
      </city>
      <university>
        <name>NA</name>
        <department>NA</department>
      </university>
    </location>
  </author>
  <author>
    <name>Andrea Capotorti</name>
    <email>andrea.capotorti@unipg.it</email>
    <location>
      <country>
        <code>IT</code>
        <name>Italy</name>
      </country>
      <city>
        <name>Perugia</name>
        <latitude>43.11220</latitude>
        <longitude>12.38878</longitude>
      </city>
      <university>
        <name>NA</name>
        <department>NA</department>
      </university>
    </location>
  </author>
  <author>
    <name>Marco Baioletti</name>
    <email>marco.baioletti@unipg.it</email>
    <location>
      <country>
        <code>IT</code>
        <name>Italy</name>
      </country>
      <city>
        <name>Perugia</name>
        <latitude>43.11220</latitude>
        <longitude>12.38878</longitude>
      </city>
      <university>
        <name>NA</name>
        <department>NA</department>
      </university>
    </location>
  </author>
  <author>
    <name>Mikelis Bickis</name>
    <email>bickis@snoopy.usask.ca</email>
    <location>
      <country>
        <code>CA</code>
        <name>Canada</name>
      </country>
      <city>
        <name>Saskatoon</name>
        <latitude>52.11679</latitude>
        <longitude>-106.63452</longitude>
      </city>
      <university>
        <name>NA</name>
        <department>NA</department>
      </university>
    </location>
  </author>
  <author>
    <name>Seamus Bradley</name>
    <email>seamus.bradley@lmu.de</email>
    <location>
      <country>
        <code>DE</code>
        <name>Germany</name>
      </country>
      <city>
        <name>Munich</name>
        <latitude>48.13743</latitude>
        <longitude>11.57549</longitude>
      </city>
      <university>
        <name>NA</name>
        <department>NA</department>
      </university>
    </location>
  </author>
  <author>
    <name>Andrew Bronevich</name>
    <email>brone@mail.ru</email>
    <location>
      <country>
        <code>RU</code>
        <name>Russian Federation</name>
      </country>
      <city>
        <name>Moscow</name>
        <latitude>55.75222</latitude>
        <longitude>37.61556</longitude>
      </city>
      <university>
        <name>NA</name>
        <department>NA</department>
      </university>
    </location>
  </author>
  <author>
    <name>Igor Rozenberg</name>
    <email>i.rozenberg@gismps.ru</email>
    <location>
      <country>
        <code>RU</code>
        <name>Russian Federation</name>
      </country>
      <city>
        <name>Moscow</name>
        <latitude>55.75222</latitude>
        <longitude>37.61556</longitude>
      </city>
      <university>
        <name>NA</name>
        <department>NA</department>
      </university>
    </location>
  </author>
  <author>
    <name>Barbara Vantaggi</name>
    <email>barbara.vantaggi@sbai.uniroma1.it</email>
    <location>
      <country>
        <code>IT</code>
        <name>Italy</name>
      </country>
      <city>
        <name>Rome</name>
        <latitude>41.89474</latitude>
        <longitude>12.48390</longitude>
      </city>
      <university>
        <name>NA</name>
        <department>NA</department>
      </university>
    </location>
  </author>
  <author>
    <name>Davide Petturiti</name>
    <email>davide.petturiti@dmi.unipg.it</email>
    <location>
      <country>
        <code>IT</code>
        <name>Italy</name>
      </country>
      <city>
        <name>Perugia</name>
        <latitude>43.11220</latitude>
        <longitude>12.38878</longitude>
      </city>
      <university>
        <name>NA</name>
        <department>NA</department>
      </university>
    </location>
  </author>
  <author>
    <name>Giulianella Coletti</name>
    <email>coletti@dmi.unipg.it</email>
    <location>
      <country>
        <code>IT</code>
        <name>Italy</name>
      </country>
      <city>
        <name>Perugia</name>
        <latitude>43.11220</latitude>
        <longitude>12.38878</longitude>
      </city>
      <university>
        <name>NA</name>
        <department>NA</department>
      </university>
    </location>
  </author>
  <author>
    <name>Fabio Cozman</name>
    <email>fgcozman@usp.br</email>
    <location>
      <country>
        <code>BR</code>
        <name>Brazil</name>
      </country>
      <city>
        <name>Sao Paulo</name>
        <latitude>-23.54750</latitude>
        <longitude>-46.63611</longitude>
      </city>
      <university>
        <name>NA</name>
        <department>NA</department>
      </university>
    </location>
  </author>
  <author>
    <name>Denis Maua</name>
    <email>denis.maua@gmail.com</email>
    <location>
      <country>
        <code>BR</code>
        <name>Brazil</name>
      </country>
      <city>
        <name>Sao Paulo</name>
        <latitude>-23.54750</latitude>
        <longitude>-46.63611</longitude>
      </city>
      <university>
        <name>NA</name>
        <department>NA</department>
      </university>
    </location>
  </author>
  <author>
    <name>Gert de Cooman</name>
    <email>gert.decooman@ugent.be</email>
    <location>
      <country>
        <code>BE</code>
        <name>Belgium</name>
      </country>
      <city>
        <name>Ghent</name>
        <latitude>51.05000</latitude>
        <longitude>3.71667</longitude>
      </city>
      <university>
        <name>NA</name>
        <department>NA</department>
      </university>
    </location>
  </author>
  <author>
    <name>Jasper de Bock</name>
    <email>jasper.debock@ugent.be</email>
    <location>
      <country>
        <code>BE</code>
        <name>Belgium</name>
      </country>
      <city>
        <name>Ghent</name>
        <latitude>51.05000</latitude>
        <longitude>3.71667</longitude>
      </city>
      <university>
        <name>NA</name>
        <department>NA</department>
      </university>
    </location>
  </author>
  <author>
    <name>Stavros Lopatatzidis</name>
    <email>stavros.lopatatzidis@ugent.be</email>
    <location>
      <country>
        <code>BE</code>
        <name>Belgium</name>
      </country>
      <city>
        <name>Ghent</name>
        <latitude>51.05000</latitude>
        <longitude>3.71667</longitude>
      </city>
      <university>
        <name>NA</name>
        <department>NA</department>
      </university>
    </location>
  </author>
  <author>
    <name>Serena Doria</name>
    <email>s.doria@dst.unich.it</email>
    <location>
      <country>
        <code>IT</code>
        <name>Italy</name>
      </country>
      <city>
        <name>Chieti</name>
        <latitude>42.36094</latitude>
        <longitude>14.13801</longitude>
      </city>
      <university>
        <name>NA</name>
        <department>NA</department>
      </university>
    </location>
  </author>
  <author>
    <name>Michael Oberguggenberger</name>
    <email>michael.oberguggenberger@uibk.ac.at</email>
    <location>
      <country>
        <code>AT</code>
        <name>Austria</name>
      </country>
      <city>
        <name>Innsbruck</name>
        <latitude>47.26266</latitude>
        <longitude>11.39454</longitude>
      </city>
      <university>
        <name>NA</name>
        <department>NA</department>
      </university>
    </location>
  </author>
  <author>
    <name>Thomas Fetz</name>
    <email>thomas.fetz@uibk.ac.at</email>
    <location>
      <country>
        <code>AT</code>
        <name>Austria</name>
      </country>
      <city>
        <name>Innsbruck</name>
        <latitude>47.26266</latitude>
        <longitude>11.39454</longitude>
      </city>
      <university>
        <name>NA</name>
        <department>NA</department>
      </university>
    </location>
  </author>
  <author>
    <name>Didier Dubois</name>
    <email>dubois@irit.fr</email>
    <location>
      <country>
        <code>FR</code>
        <name>France</name>
      </country>
      <city>
        <name>Toulouse</name>
        <latitude>43.60426</latitude>
        <longitude>1.44367</longitude>
      </city>
      <university>
        <name>NA</name>
        <department>NA</department>
      </university>
    </location>
  </author>
  <author>
    <name>Romain Guillaume</name>
    <email>guillaum@irit.fr</email>
    <location>
      <country>
        <code>FR</code>
        <name>France</name>
      </country>
      <city>
        <name>Toulouse</name>
        <latitude>43.60426</latitude>
        <longitude>1.44367</longitude>
      </city>
      <university>
        <name>NA</name>
        <department>NA</department>
      </university>
    </location>
  </author>
  <author>
    <name>Radim Jirousek</name>
    <email>radim@utia.cas.cz</email>
    <location>
      <country>
        <code>CZ</code>
        <name>Czech Republic</name>
      </country>
      <city>
        <name>Jindrichuv Hradec</name>
        <latitude>49.14404</latitude>
        <longitude>15.00301</longitude>
      </city>
      <university>
        <name>NA</name>
        <department>NA</department>
      </university>
    </location>
  </author>
  <author>
    <name>Hailin Liu</name>
    <email>hailinl@andrew.cmu.edu</email>
    <location>
      <country>
        <code>US</code>
        <name>United States</name>
      </country>
      <city>
        <name>Pittsburgh</name>
        <latitude>40.47441</latitude>
        <longitude>-79.95097</longitude>
      </city>
      <university>
        <name>NA</name>
        <department>NA</department>
      </university>
    </location>
  </author>
  <author>
    <name>Francesca Mangili</name>
    <email>francesca@idsia.ch</email>
    <location>
      <country>
        <code>CH</code>
        <name>Switzerland</name>
      </country>
      <city>
        <name>Manno</name>
        <latitude>46.03072</latitude>
        <longitude>8.91937</longitude>
      </city>
      <university>
        <name>NA</name>
        <department>NA</department>
      </university>
    </location>
  </author>
  <author>
    <name>Enrique Miranda</name>
    <email>mirandaenrique@uniovi.es</email>
    <location>
      <country>
        <code>ES</code>
        <name>Spain</name>
      </country>
      <city>
        <name>Oviedo</name>
        <latitude>43.36029</latitude>
        <longitude>-5.84476</longitude>
      </city>
      <university>
        <name>NA</name>
        <department>NA</department>
      </university>
    </location>
  </author>
  <author>
    <name>Marco Zaffalon</name>
    <email>zaffalon@idsia.ch</email>
    <location>
      <country>
        <code>CH</code>
        <name>Switzerland</name>
      </country>
      <city>
        <name>Manno</name>
        <latitude>46.03072</latitude>
        <longitude>8.91937</longitude>
      </city>
      <university>
        <name>NA</name>
        <department>NA</department>
      </university>
    </location>
  </author>
  <author>
    <name>Ignacio Montes</name>
    <email>ignacio.montes@hds.utc.fr</email>
    <location>
      <country>
        <code>FR</code>
        <name>France</name>
      </country>
      <city>
        <name>Compiegne</name>
        <latitude>49.41794</latitude>
        <longitude>2.82606</longitude>
      </city>
      <university>
        <name>NA</name>
        <department>NA</department>
      </university>
    </location>
  </author>
  <author>
    <name>Sebastien Destercke</name>
    <email>sebastien.destercke@hds.utc.fr</email>
    <location>
      <country>
        <code>FR</code>
        <name>France</name>
      </country>
      <city>
        <name>Compiegne</name>
        <latitude>49.41794</latitude>
        <longitude>2.82606</longitude>
      </city>
      <university>
        <name>NA</name>
        <department>NA</department>
      </university>
    </location>
  </author>
  <author>
    <name>Lewis Paton</name>
    <email>l.w.paton@durham.ac.uk</email>
    <location>
      <country>
        <code>GB</code>
        <name>United Kingdom</name>
      </country>
      <city>
        <name>Durham (UK)</name>
        <latitude>54.77639</latitude>
        <longitude>-1.57587</longitude>
      </city>
      <university>
        <name>NA</name>
        <department>NA</department>
      </university>
    </location>
  </author>
  <author>
    <name>Matthias Troffaes</name>
    <email>matthias.troffaes@gmail.com</email>
    <location>
      <country>
        <code>GB</code>
        <name>United Kingdom</name>
      </country>
      <city>
        <name>Durham (UK)</name>
        <latitude>54.77639</latitude>
        <longitude>-1.57587</longitude>
      </city>
      <university>
        <name>NA</name>
        <department>NA</department>
      </university>
    </location>
  </author>
  <author>
    <name>Nigel Boatman</name>
    <email>nigel.boatman@fera.gsi.gov.uk</email>
    <location>
      <country>
        <code>GB</code>
        <name>United Kingdom</name>
      </country>
      <city>
        <name>Sand Hutton</name>
        <latitude>54.01776</latitude>
        <longitude>-0.93832</longitude>
      </city>
      <university>
        <name>NA</name>
        <department>NA</department>
      </university>
    </location>
  </author>
  <author>
    <name>Mohamud Hussein</name>
    <email>mohamud.hussein@fera.gsi.gov.uk</email>
    <location>
      <country>
        <code>GB</code>
        <name>United Kingdom</name>
      </country>
      <city>
        <name>Sand Hutton</name>
        <latitude>54.01776</latitude>
        <longitude>-0.93832</longitude>
      </city>
      <university>
        <name>NA</name>
        <department>NA</department>
      </university>
    </location>
  </author>
  <author>
    <name>Arthur Paul Pedersen</name>
    <email>pedersen@mpib-berlin.mpg.de</email>
    <location>
      <country>
        <code>DE</code>
        <name>Germany</name>
      </country>
      <city>
        <name>Berlin</name>
        <latitude>52.52330</latitude>
        <longitude>13.41377</longitude>
      </city>
      <university>
        <name>NA</name>
        <department>NA</department>
      </university>
    </location>
  </author>
  <author>
    <name>Gregory Wheeler</name>
    <email>gregory.wheeler@lrz.uni-muenchen.de</email>
    <location>
      <country>
        <code>DE</code>
        <name>Germany</name>
      </country>
      <city>
        <name>Munich</name>
        <latitude>48.13743</latitude>
        <longitude>11.57549</longitude>
      </city>
      <university>
        <name>NA</name>
        <department>NA</department>
      </university>
    </location>
  </author>
  <author>
    <name>Paolo Vicig</name>
    <email>paolo.vicig@econ.units.it</email>
    <location>
      <country>
        <code>IT</code>
        <name>Italy</name>
      </country>
      <city>
        <name>Trieste</name>
        <latitude>45.64861</latitude>
        <longitude>13.78000</longitude>
      </city>
      <university>
        <name>NA</name>
        <department>NA</department>
      </university>
    </location>
  </author>
  <author>
    <name>Renato Pelessoni</name>
    <email>renato.pelessoni@econ.units.it</email>
    <location>
      <country>
        <code>IT</code>
        <name>Italy</name>
      </country>
      <city>
        <name>Trieste</name>
        <latitude>45.64861</latitude>
        <longitude>13.78000</longitude>
      </city>
      <university>
        <name>NA</name>
        <department>NA</department>
      </university>
    </location>
  </author>
  <author>
    <name>Georg Schollmeyer</name>
    <email>georg.schollmeyer@stat.uni-muenchen.de</email>
    <location>
      <country>
        <code>DE</code>
        <name>Germany</name>
      </country>
      <city>
        <name>Munich</name>
        <latitude>48.13743</latitude>
        <longitude>11.57549</longitude>
      </city>
      <university>
        <name>NA</name>
        <department>NA</department>
      </university>
    </location>
  </author>
  <author>
    <name>Marco Cattaneo</name>
    <email>m.cattaneo@hull.ac.uk</email>
    <location>
      <country>
        <code>GB</code>
        <name>United Kingdom</name>
      </country>
      <city>
        <name>Kingston upon Hull</name>
        <latitude>53.74460</latitude>
        <longitude>-0.33525</longitude>
      </city>
      <university>
        <name>NA</name>
        <department>NA</department>
      </university>
    </location>
  </author>
  <author>
    <name>Thomas Augustin</name>
    <email>augustin@stat.uni-muenchen.de</email>
    <location>
      <country>
        <code>DE</code>
        <name>Germany</name>
      </country>
      <city>
        <name>Munich</name>
        <latitude>48.13743</latitude>
        <longitude>11.57549</longitude>
      </city>
      <university>
        <name>NA</name>
        <department>NA</department>
      </university>
    </location>
  </author>
  <author>
    <name>Julia Plass</name>
    <email>julia.plass@stat.uni-muenchen.de</email>
    <location>
      <country>
        <code>DE</code>
        <name>Germany</name>
      </country>
      <city>
        <name>Munich</name>
        <latitude>48.13743</latitude>
        <longitude>11.57549</longitude>
      </city>
      <university>
        <name>NA</name>
        <department>NA</department>
      </university>
    </location>
  </author>
  <author>
    <name>Paul Fink</name>
    <email>paul.fink@stat.uni-muenchen.de</email>
    <location>
      <country>
        <code>DE</code>
        <name>Germany</name>
      </country>
      <city>
        <name>Munich</name>
        <latitude>48.13743</latitude>
        <longitude>11.57549</longitude>
      </city>
      <university>
        <name>NA</name>
        <department>NA</department>
      </university>
    </location>
  </author>
  <author>
    <name>Norbert Schoening</name>
    <email>norbert.schoening@gsi.uni-muenchen.de</email>
    <location>
      <country>
        <code>DE</code>
        <name>Germany</name>
      </country>
      <city>
        <name>Munich</name>
        <latitude>48.13743</latitude>
        <longitude>11.57549</longitude>
      </city>
      <university>
        <name>NA</name>
        <department>NA</department>
      </university>
    </location>
  </author>
  <author>
    <name>Nenad Savic</name>
    <email>nsavic@uns.ac.rs</email>
    <location>
      <country>
        <code>RS</code>
        <name>Serbia</name>
      </country>
      <city>
        <name>Novi Sad</name>
        <latitude>45.25167</latitude>
        <longitude>19.83694</longitude>
      </city>
      <university>
        <name>NA</name>
        <department>NA</department>
      </university>
    </location>
  </author>
  <author>
    <name>Dragan Doder</name>
    <email>dragan.doder@uni.lu</email>
    <location>
      <country>
        <code>LU</code>
        <name>Luxembourg</name>
      </country>
      <city>
        <name>Luxembourg</name>
        <latitude>49.61167</latitude>
        <longitude>6.13000</longitude>
      </city>
      <university>
        <name>NA</name>
        <department>NA</department>
      </university>
    </location>
  </author>
  <author>
    <name>Zoran Ognjanovic</name>
    <email>zorano@mi.sanu.ac.rs</email>
    <location>
      <country>
        <code>RS</code>
        <name>Serbia</name>
      </country>
      <city>
        <name>Belgrade</name>
        <latitude>44.80401</latitude>
        <longitude>20.46513</longitude>
      </city>
      <university>
        <name>NA</name>
        <department>NA</department>
      </university>
    </location>
  </author>
  <author>
    <name>Damjan Skulj</name>
    <email>damjan.skulj@fdv.uni-lj.si</email>
    <location>
      <country>
        <code>SI</code>
        <name>Slovenia</name>
      </country>
      <city>
        <name>Ljubljana</name>
        <latitude>46.05108</latitude>
        <longitude>14.50513</longitude>
      </city>
      <university>
        <name>NA</name>
        <department>NA</department>
      </university>
    </location>
  </author>
  <author>
    <name>Simon Blake</name>
    <email>simon.blake@ncl.ac.uk</email>
    <location>
      <country>
        <code>GB</code>
        <name>United Kingdom</name>
      </country>
      <city>
        <name>Newcastle Upon Tyne</name>
        <latitude>54.97328</latitude>
        <longitude>-1.61396</longitude>
      </city>
      <university>
        <name>NA</name>
        <department>NA</department>
      </university>
    </location>
  </author>
  <author>
    <name>Jacob Gledhill</name>
    <email>jacob.gledhill@durham.ac.uk</email>
    <location>
      <country>
        <code>GB</code>
        <name>United Kingdom</name>
      </country>
      <city>
        <name>Durham (UK)</name>
        <latitude>54.77639</latitude>
        <longitude>-1.57587</longitude>
      </city>
      <university>
        <name>NA</name>
        <department>NA</department>
      </university>
    </location>
  </author>
  <author>
    <name>Lev Utkin</name>
    <email>lev.utkin@gmail.com</email>
    <location>
      <country>
        <code>RU</code>
        <name>Russian Federation</name>
      </country>
      <city>
        <name>Saint Petersburg</name>
        <latitude>59.89444</latitude>
        <longitude>30.26417</longitude>
      </city>
      <university>
        <name>NA</name>
        <department>NA</department>
      </university>
    </location>
  </author>
  <author>
    <name>Anatoly Chekh</name>
    <email>anatoly.chekh@gmail.com</email>
    <location>
      <country>
        <code>RU</code>
        <name>Russian Federation</name>
      </country>
      <city>
        <name>Saint Petersburg</name>
        <latitude>59.89444</latitude>
        <longitude>30.26417</longitude>
      </city>
      <university>
        <name>NA</name>
        <department>NA</department>
      </university>
    </location>
  </author>
  <author>
    <name>Yulia Zhuk</name>
    <email>zhuk_yua@mail.ru</email>
    <location>
      <country>
        <code>RU</code>
        <name>Russian Federation</name>
      </country>
      <city>
        <name>Saint Petersburg</name>
        <latitude>59.89444</latitude>
        <longitude>30.26417</longitude>
      </city>
      <university>
        <name>NA</name>
        <department>NA</department>
      </university>
    </location>
  </author>
  <author>
    <name>Arthur van Camp</name>
    <email>arthur.vancamp@ugent.be</email>
    <location>
      <country>
        <code>BE</code>
        <name>Belgium</name>
      </country>
      <city>
        <name>Ghent</name>
        <latitude>51.05000</latitude>
        <longitude>3.71667</longitude>
      </city>
      <university>
        <name>NA</name>
        <department>NA</department>
      </university>
    </location>
  </author>
  <author>
    <name>Erik Quaeghebeur</name>
    <email>erik.quaeghebeur@cwi.nl</email>
    <location>
      <country>
        <code>NL</code>
        <name>Netherlands</name>
      </country>
      <city>
        <name>Amsterdam</name>
        <latitude>52.37403</latitude>
        <longitude>4.88969</longitude>
      </city>
      <university>
        <name>NA</name>
        <department>NA</department>
      </university>
    </location>
  </author>
  <author>
    <name>Jirina Vejnarova</name>
    <email>vejnar@utia.cas.cz</email>
    <location>
      <country>
        <code>CZ</code>
        <name>Czech Republic</name>
      </country>
      <city>
        <name>Prague</name>
        <latitude>50.08804</latitude>
        <longitude>14.42076</longitude>
      </city>
      <university>
        <name>NA</name>
        <department>NA</department>
      </university>
    </location>
  </author>
  <author>
    <name>Andrea Wiencierz</name>
    <email>andrea.wiencierz@york.ac.uk</email>
    <location>
      <country>
        <code>GB</code>
        <name>United Kingdom</name>
      </country>
      <city>
        <name>York</name>
        <latitude>53.95938</latitude>
        <longitude>-1.08142</longitude>
      </city>
      <university>
        <name>NA</name>
        <department>NA</department>
      </university>
    </location>
  </author>
</authors>